{
"type": "FeatureCollection",
"crs": { "type": "name", "properties": { "name": "urn:ogc:def:crs:OGC:1.3:CRS84" } },
"features": [
{ "type": "Feature", "properties": { "name": "115th Street", "zip": "10026", "longitude": -73.953530744303933, "latitute": 40.802979881966763 }, "geometry": { "type": "Point", "coordinates": [ -73.953530744303933, 40.802979881966763 ] } },
{ "type": "Feature", "properties": { "name": "125th Street", "zip": "10035", "longitude": -73.934847563324695, "latitute": 40.80301816141575 }, "geometry": { "type": "Point", "coordinates": [ -73.934847563324695, 40.80301816141575 ] } },
{ "type": "Feature", "properties": { "name": "53rd Street", "zip": "10019", "longitude": -73.977363292706968, "latitute": 40.760806894741719 }, "geometry": { "type": "Point", "coordinates": [ -73.977363292706968, 40.760806894741719 ] } },
{ "type": "Feature", "properties": { "name": "58th Street", "zip": "10022", "longitude": -73.969381704657593, "latitute": 40.762186017723501 }, "geometry": { "type": "Point", "coordinates": [ -73.969381704657593, 40.762186017723501 ] } },
{ "type": "Feature", "properties": { "name": "67th Street", "zip": "10065", "longitude": -73.959549945842426, "latitute": 40.764915006253425 }, "geometry": { "type": "Point", "coordinates": [ -73.959549945842426, 40.764915006253425 ] } },
{ "type": "Feature", "properties": { "name": "96th Street", "zip": "10128", "longitude": -73.951805671620804, "latitute": 40.785959798621555 }, "geometry": { "type": "Point", "coordinates": [ -73.951805671620804, 40.785959798621555 ] } },
{ "type": "Feature", "properties": { "name": "Aguilar", "zip": "10029", "longitude": -73.943458278538145, "latitute": 40.794214765463728 }, "geometry": { "type": "Point", "coordinates": [ -73.943458278538145, 40.794214765463728 ] } },
{ "type": "Feature", "properties": { "name": "Allerton", "zip": "10467", "longitude": -73.863222484839682, "latitute": 40.866804429026935 }, "geometry": { "type": "Point", "coordinates": [ -73.863222484839682, 40.866804429026935 ] } },
{ "type": "Feature", "properties": { "name": "Andrew Heiskell Braille and Talking Book", "zip": "10011", "longitude": -73.993356911186737, "latitute": 40.740465455610881 }, "geometry": { "type": "Point", "coordinates": [ -73.993356911186737, 40.740465455610881 ] } },
{ "type": "Feature", "properties": { "name": "Battery Park City Library", "zip": "10282", "longitude": -74.015748712327195, "latitute": 40.715690873439094 }, "geometry": { "type": "Point", "coordinates": [ -74.015748712327195, 40.715690873439094 ] } },
{ "type": "Feature", "properties": { "name": "Baychester", "zip": "10475", "longitude": -73.829315945672178, "latitute": 40.870753308087892 }, "geometry": { "type": "Point", "coordinates": [ -73.829315945672178, 40.870753308087892 ] } },
{ "type": "Feature", "properties": { "name": "Belmont Library and Enrico Fermi Cultural Center", "zip": "10458", "longitude": -73.887882685265438, "latitute": 40.854344214518612 }, "geometry": { "type": "Point", "coordinates": [ -73.887882685265438, 40.854344214518612 ] } },
{ "type": "Feature", "properties": { "name": "Bloomingdale", "zip": "10025", "longitude": -73.967606771352735, "latitute": 40.795873546480152 }, "geometry": { "type": "Point", "coordinates": [ -73.967606771352735, 40.795873546480152 ] } },
{ "type": "Feature", "properties": { "name": "Bronx Library Center", "zip": "10458", "longitude": -73.894502886450439, "latitute": 40.862980605193208 }, "geometry": { "type": "Point", "coordinates": [ -73.894502886450439, 40.862980605193208 ] } },
{ "type": "Feature", "properties": { "name": "Castle Hill", "zip": "10473", "longitude": -73.850170197173824, "latitute": 40.826629208100229 }, "geometry": { "type": "Point", "coordinates": [ -73.850170197173824, 40.826629208100229 ] } },
{ "type": "Feature", "properties": { "name": "Chatham Square", "zip": "10002", "longitude": -73.996489866367213, "latitute": 40.713333070507467 }, "geometry": { "type": "Point", "coordinates": [ -73.996489866367213, 40.713333070507467 ] } },
{ "type": "Feature", "properties": { "name": "City Island", "zip": "10464", "longitude": -73.786366589008082, "latitute": 40.847691903619904 }, "geometry": { "type": "Point", "coordinates": [ -73.786366589008082, 40.847691903619904 ] } },
{ "type": "Feature", "properties": { "name": "Clason's Point", "zip": "10472", "longitude": -73.875020600240475, "latitute": 40.829992875279167 }, "geometry": { "type": "Point", "coordinates": [ -73.875020600240475, 40.829992875279167 ] } },
{ "type": "Feature", "properties": { "name": "Columbus", "zip": "10019", "longitude": -73.991220817837117, "latitute": 40.764934618394804 }, "geometry": { "type": "Point", "coordinates": [ -73.991220817837117, 40.764934618394804 ] } },
{ "type": "Feature", "properties": { "name": "Countee Cullen", "zip": "10030", "longitude": -73.941160923509628, "latitute": 40.814835821381571 }, "geometry": { "type": "Point", "coordinates": [ -73.941160923509628, 40.814835821381571 ] } },
{ "type": "Feature", "properties": { "name": "Dongan Hills", "zip": "10304", "longitude": -74.101137289358107, "latitute": 40.590391335997872 }, "geometry": { "type": "Point", "coordinates": [ -74.101137289358107, 40.590391335997872 ] } },
{ "type": "Feature", "properties": { "name": "Eastchester", "zip": "10469", "longitude": -73.845064275328639, "latitute": 40.870139702970548 }, "geometry": { "type": "Point", "coordinates": [ -73.845064275328639, 40.870139702970548 ] } },
{ "type": "Feature", "properties": { "name": "Edenwald", "zip": "10466", "longitude": -73.840837127854925, "latitute": 40.88889489584642 }, "geometry": { "type": "Point", "coordinates": [ -73.840837127854925, 40.88889489584642 ] } },
{ "type": "Feature", "properties": { "name": "Epiphany", "zip": "10010", "longitude": -73.982048889642641, "latitute": 40.738087120390595 }, "geometry": { "type": "Point", "coordinates": [ -73.982048889642641, 40.738087120390595 ] } },
{ "type": "Feature", "properties": { "name": "Fort Washington", "zip": "10033", "longitude": -73.933865913124492, "latitute": 40.847870041168214 }, "geometry": { "type": "Point", "coordinates": [ -73.933865913124492, 40.847870041168214 ] } },
{ "type": "Feature", "properties": { "name": "Francis Martin", "zip": "10453", "longitude": -73.909316350324275, "latitute": 40.857421894227791 }, "geometry": { "type": "Point", "coordinates": [ -73.909316350324275, 40.857421894227791 ] } },
{ "type": "Feature", "properties": { "name": "George Bruce", "zip": "10027", "longitude": -73.957053206549986, "latitute": 40.813768964572695 }, "geometry": { "type": "Point", "coordinates": [ -73.957053206549986, 40.813768964572695 ] } },
{ "type": "Feature", "properties": { "name": "Grand Central", "zip": "10017", "longitude": -73.973567716833443, "latitute": 40.754067875550625 }, "geometry": { "type": "Point", "coordinates": [ -73.973567716833443, 40.754067875550625 ] } },
{ "type": "Feature", "properties": { "name": "Grand Concourse", "zip": "10457", "longitude": -73.910087144493843, "latitute": 40.844001911750446 }, "geometry": { "type": "Point", "coordinates": [ -73.910087144493843, 40.844001911750446 ] } },
{ "type": "Feature", "properties": { "name": "Great Kills", "zip": "10308", "longitude": -74.151111643136844, "latitute": 40.552423262807963 }, "geometry": { "type": "Point", "coordinates": [ -74.151111643136844, 40.552423262807963 ] } },
{ "type": "Feature", "properties": { "name": "Hamilton Fish Park", "zip": "10002", "longitude": -73.979423144174447, "latitute": 40.719780154382761 }, "geometry": { "type": "Point", "coordinates": [ -73.979423144174447, 40.719780154382761 ] } },
{ "type": "Feature", "properties": { "name": "Hamilton Grange", "zip": "10031", "longitude": -73.948032418901917, "latitute": 40.82567237379984 }, "geometry": { "type": "Point", "coordinates": [ -73.948032418901917, 40.82567237379984 ] } },
{ "type": "Feature", "properties": { "name": "Harlem", "zip": "10027", "longitude": -73.943315598382569, "latitute": 40.80616044207548 }, "geometry": { "type": "Point", "coordinates": [ -73.943315598382569, 40.80616044207548 ] } },
{ "type": "Feature", "properties": { "name": "High Bridge", "zip": "10452", "longitude": -73.923550901569513, "latitute": 40.837960016855035 }, "geometry": { "type": "Point", "coordinates": [ -73.923550901569513, 40.837960016855035 ] } },
{ "type": "Feature", "properties": { "name": "Hudson Park", "zip": "10014", "longitude": -74.00533101445356, "latitute": 40.729982914586529 }, "geometry": { "type": "Point", "coordinates": [ -74.00533101445356, 40.729982914586529 ] } },
{ "type": "Feature", "properties": { "name": "Huguenot Park", "zip": "10312", "longitude": -74.193229006501824, "latitute": 40.534078493080344 }, "geometry": { "type": "Point", "coordinates": [ -74.193229006501824, 40.534078493080344 ] } },
{ "type": "Feature", "properties": { "name": "Hunts Point", "zip": "10459", "longitude": -73.894132165803882, "latitute": 40.818670087188615 }, "geometry": { "type": "Point", "coordinates": [ -73.894132165803882, 40.818670087188615 ] } },
{ "type": "Feature", "properties": { "name": "Inwood", "zip": "10034", "longitude": -73.925862909172508, "latitute": 40.865748720737024 }, "geometry": { "type": "Point", "coordinates": [ -73.925862909172508, 40.865748720737024 ] } },
{ "type": "Feature", "properties": { "name": "Jefferson Market", "zip": "10011", "longitude": -73.999169285133149, "latitute": 40.734634708308469 }, "geometry": { "type": "Point", "coordinates": [ -73.999169285133149, 40.734634708308469 ] } },
{ "type": "Feature", "properties": { "name": "Jerome Park", "zip": "10468", "longitude": -73.901192359629178, "latitute": 40.869069866893021 }, "geometry": { "type": "Point", "coordinates": [ -73.901192359629178, 40.869069866893021 ] } },
{ "type": "Feature", "properties": { "name": "Kingsbridge", "zip": "10463", "longitude": -73.907705951996462, "latitute": 40.880699890380043 }, "geometry": { "type": "Point", "coordinates": [ -73.907705951996462, 40.880699890380043 ] } },
{ "type": "Feature", "properties": { "name": "Kips Bay", "zip": "10016", "longitude": -73.979901958531627, "latitute": 40.743809620132417 }, "geometry": { "type": "Point", "coordinates": [ -73.979901958531627, 40.743809620132417 ] } },
{ "type": "Feature", "properties": { "name": "Macomb's Bridge", "zip": "10039", "longitude": -73.935862462506975, "latitute": 40.826532013394228 }, "geometry": { "type": "Point", "coordinates": [ -73.935862462506975, 40.826532013394228 ] } },
{ "type": "Feature", "properties": { "name": "Mariners Harbor", "zip": "10303", "longitude": -74.166581905023648, "latitute": 40.634693431844688 }, "geometry": { "type": "Point", "coordinates": [ -74.166581905023648, 40.634693431844688 ] } },
{ "type": "Feature", "properties": { "name": "Melrose", "zip": "10451", "longitude": -73.917583936035612, "latitute": 40.826584558970666 }, "geometry": { "type": "Point", "coordinates": [ -73.917583936035612, 40.826584558970666 ] } },
{ "type": "Feature", "properties": { "name": "Mid-Manhattan", "zip": "10016", "longitude": -73.981698510789172, "latitute": 40.751891561710309 }, "geometry": { "type": "Point", "coordinates": [ -73.981698510789172, 40.751891561710309 ] } },
{ "type": "Feature", "properties": { "name": "Morningside Heights", "zip": "10025", "longitude": -73.96477561597041, "latitute": 40.806130258008373 }, "geometry": { "type": "Point", "coordinates": [ -73.96477561597041, 40.806130258008373 ] } },
{ "type": "Feature", "properties": { "name": "Morris Park", "zip": "10462", "longitude": -73.856957853753741, "latitute": 40.848029110055521 }, "geometry": { "type": "Point", "coordinates": [ -73.856957853753741, 40.848029110055521 ] } },
{ "type": "Feature", "properties": { "name": "Morrisania", "zip": "10456", "longitude": -73.901794072061833, "latitute": 40.831262912014793 }, "geometry": { "type": "Point", "coordinates": [ -73.901794072061833, 40.831262912014793 ] } },
{ "type": "Feature", "properties": { "name": "Mosholu", "zip": "10467", "longitude": -73.878384350324481, "latitute": 40.874379813989378 }, "geometry": { "type": "Point", "coordinates": [ -73.878384350324481, 40.874379813989378 ] } },
{ "type": "Feature", "properties": { "name": "Mott Haven", "zip": "10454", "longitude": -73.92438195200242, "latitute": 40.811589637752462 }, "geometry": { "type": "Point", "coordinates": [ -73.92438195200242, 40.811589637752462 ] } },
{ "type": "Feature", "properties": { "name": "Muhlenberg", "zip": "10011", "longitude": -73.995968569069802, "latitute": 40.744487330654948 }, "geometry": { "type": "Point", "coordinates": [ -73.995968569069802, 40.744487330654948 ] } },
{ "type": "Feature", "properties": { "name": "Mulberry Street", "zip": "10012", "longitude": -73.995684168594536, "latitute": 40.724139266055431 }, "geometry": { "type": "Point", "coordinates": [ -73.995684168594536, 40.724139266055431 ] } },
{ "type": "Feature", "properties": { "name": "New Amsterdam", "zip": "10007", "longitude": -74.00786921340098, "latitute": 40.71357685109021 }, "geometry": { "type": "Point", "coordinates": [ -74.00786921340098, 40.71357685109021 ] } },
{ "type": "Feature", "properties": { "name": "New Dorp", "zip": "10306", "longitude": -74.111958147481147, "latitute": 40.571931848365132 }, "geometry": { "type": "Point", "coordinates": [ -74.111958147481147, 40.571931848365132 ] } },
{ "type": "Feature", "properties": { "name": "Library for the Performing Arts, Dorothy and Lewis B. Cullman Center", "zip": "10023", "longitude": -73.984546845228408, "latitute": 40.773506991192697 }, "geometry": { "type": "Point", "coordinates": [ -73.984546845228408, 40.773506991192697 ] } },
{ "type": "Feature", "properties": { "name": "Ottendorfer", "zip": "10003", "longitude": -73.987742841046625, "latitute": 40.72890664078863 }, "geometry": { "type": "Point", "coordinates": [ -73.987742841046625, 40.72890664078863 ] } },
{ "type": "Feature", "properties": { "name": "Parkchester", "zip": "10462", "longitude": -73.858350048160816, "latitute": 40.833780985295448 }, "geometry": { "type": "Point", "coordinates": [ -73.858350048160816, 40.833780985295448 ] } },
{ "type": "Feature", "properties": { "name": "Pelham Bay", "zip": "10461", "longitude": -73.827900172374925, "latitute": 40.844317529931516 }, "geometry": { "type": "Point", "coordinates": [ -73.827900172374925, 40.844317529931516 ] } },
{ "type": "Feature", "properties": { "name": "Pelham Parkway-Van Nest", "zip": "10462", "longitude": -73.864146661633598, "latitute": 40.854875880273838 }, "geometry": { "type": "Point", "coordinates": [ -73.864146661633598, 40.854875880273838 ] } },
{ "type": "Feature", "properties": { "name": "Port Richmond", "zip": "10302", "longitude": -74.131104615083984, "latitute": 40.637585616003591 }, "geometry": { "type": "Point", "coordinates": [ -74.131104615083984, 40.637585616003591 ] } },
{ "type": "Feature", "properties": { "name": "Richmondtown", "zip": "10306", "longitude": -74.138533876463114, "latitute": 40.566530146210184 }, "geometry": { "type": "Point", "coordinates": [ -74.138533876463114, 40.566530146210184 ] } },
{ "type": "Feature", "properties": { "name": "Riverdale", "zip": "10471", "longitude": -73.902772542806929, "latitute": 40.903722777079778 }, "geometry": { "type": "Point", "coordinates": [ -73.902772542806929, 40.903722777079778 ] } },
{ "type": "Feature", "properties": { "name": "Riverside", "zip": "10023", "longitude": -73.984512161965625, "latitute": 40.774232078610218 }, "geometry": { "type": "Point", "coordinates": [ -73.984512161965625, 40.774232078610218 ] } },
{ "type": "Feature", "properties": { "name": "Roosevelt Island", "zip": "10044", "longitude": -73.950205674135077, "latitute": 40.761232757278258 }, "geometry": { "type": "Point", "coordinates": [ -73.950205674135077, 40.761232757278258 ] } },
{ "type": "Feature", "properties": { "name": "Schomburg Center for Research in Black Culture", "zip": "10037", "longitude": -73.940943938376108, "latitute": 40.814648624040331 }, "geometry": { "type": "Point", "coordinates": [ -73.940943938376108, 40.814648624040331 ] } },
{ "type": "Feature", "properties": { "name": "Science, Industry and Business Library (SIBL)", "zip": "10016", "longitude": -73.983009217628137, "latitute": 40.748115158374091 }, "geometry": { "type": "Point", "coordinates": [ -73.983009217628137, 40.748115158374091 ] } },
{ "type": "Feature", "properties": { "name": "Sedgwick", "zip": "10453", "longitude": -73.917495017306805, "latitute": 40.849444506294475 }, "geometry": { "type": "Point", "coordinates": [ -73.917495017306805, 40.849444506294475 ] } },
{ "type": "Feature", "properties": { "name": "Seward Park", "zip": "10002", "longitude": -73.988501018144362, "latitute": 40.714409550334921 }, "geometry": { "type": "Point", "coordinates": [ -73.988501018144362, 40.714409550334921 ] } },
{ "type": "Feature", "properties": { "name": "Soundview", "zip": "10473", "longitude": -73.862889956080423, "latitute": 40.818709352248625 }, "geometry": { "type": "Point", "coordinates": [ -73.862889956080423, 40.818709352248625 ] } },
{ "type": "Feature", "properties": { "name": "South Beach", "zip": "10305", "longitude": -74.062980454097087, "latitute": 40.595802570464627 }, "geometry": { "type": "Point", "coordinates": [ -74.062980454097087, 40.595802570464627 ] } },
{ "type": "Feature", "properties": { "name": "Spuyten Duyvil", "zip": "10463", "longitude": -73.914650185458399, "latitute": 40.886285235599253 }, "geometry": { "type": "Point", "coordinates": [ -73.914650185458399, 40.886285235599253 ] } },
{ "type": "Feature", "properties": { "name": "St. Agnes", "zip": "10024", "longitude": -73.977452115925644, "latitute": 40.784834636708375 }, "geometry": { "type": "Point", "coordinates": [ -73.977452115925644, 40.784834636708375 ] } },
{ "type": "Feature", "properties": { "name": "St. George Library Center", "zip": "10301", "longitude": -74.07667836343802, "latitute": 40.641799348313839 }, "geometry": { "type": "Point", "coordinates": [ -74.07667836343802, 40.641799348313839 ] } },
{ "type": "Feature", "properties": { "name": "Stapleton", "zip": "10304", "longitude": -74.077863856388362, "latitute": 40.626256522293644 }, "geometry": { "type": "Point", "coordinates": [ -74.077863856388362, 40.626256522293644 ] } },
{ "type": "Feature", "properties": { "name": "Stephen A. Schwarzman Building", "zip": "10018", "longitude": -73.982230803857846, "latitute": 40.753204422909882 }, "geometry": { "type": "Point", "coordinates": [ -73.982230803857846, 40.753204422909882 ] } },
{ "type": "Feature", "properties": { "name": "Terence Cardinal Cooke-Cathedral", "zip": "10022", "longitude": -73.972540826894019, "latitute": 40.75680235018433 }, "geometry": { "type": "Point", "coordinates": [ -73.972540826894019, 40.75680235018433 ] } },
{ "type": "Feature", "properties": { "name": "Throg's Neck", "zip": "10465", "longitude": -73.819094936825493, "latitute": 40.822872184816852 }, "geometry": { "type": "Point", "coordinates": [ -73.819094936825493, 40.822872184816852 ] } },
{ "type": "Feature", "properties": { "name": "Todt Hill-Westerleigh", "zip": "10314", "longitude": -74.148521278338578, "latitute": 40.609602001721463 }, "geometry": { "type": "Point", "coordinates": [ -74.148521278338578, 40.609602001721463 ] } },
{ "type": "Feature", "properties": { "name": "Tompkins Square", "zip": "10009", "longitude": -73.98042071146763, "latitute": 40.727288026678721 }, "geometry": { "type": "Point", "coordinates": [ -73.98042071146763, 40.727288026678721 ] } },
{ "type": "Feature", "properties": { "name": "Tottenville", "zip": "10307", "longitude": -74.244106708261782, "latitute": 40.509531123859375 }, "geometry": { "type": "Point", "coordinates": [ -74.244106708261782, 40.509531123859375 ] } },
{ "type": "Feature", "properties": { "name": "Tremont", "zip": "10457", "longitude": -73.898349438168751, "latitute": 40.846045687363883 }, "geometry": { "type": "Point", "coordinates": [ -73.898349438168751, 40.846045687363883 ] } },
{ "type": "Feature", "properties": { "name": "Van Cortlandt", "zip": "10463", "longitude": -73.893921186062798, "latitute": 40.882779695464357 }, "geometry": { "type": "Point", "coordinates": [ -73.893921186062798, 40.882779695464357 ] } },
{ "type": "Feature", "properties": { "name": "Wakefield", "zip": "10466", "longitude": -73.859581244095992, "latitute": 40.891085065406706 }, "geometry": { "type": "Point", "coordinates": [ -73.859581244095992, 40.891085065406706 ] } },
{ "type": "Feature", "properties": { "name": "Washington Heights", "zip": "10032", "longitude": -73.939710349455666, "latitute": 40.834548887305765 }, "geometry": { "type": "Point", "coordinates": [ -73.939710349455666, 40.834548887305765 ] } },
{ "type": "Feature", "properties": { "name": "Webster", "zip": "10021", "longitude": -73.951341694049049, "latitute": 40.770652543462646 }, "geometry": { "type": "Point", "coordinates": [ -73.951341694049049, 40.770652543462646 ] } },
{ "type": "Feature", "properties": { "name": "West Farms", "zip": "10460", "longitude": -73.88301210482436, "latitute": 40.844644453005635 }, "geometry": { "type": "Point", "coordinates": [ -73.88301210482436, 40.844644453005635 ] } },
{ "type": "Feature", "properties": { "name": "West New Brighton", "zip": "10310", "longitude": -74.114821873448633, "latitute": 40.634508942269541 }, "geometry": { "type": "Point", "coordinates": [ -74.114821873448633, 40.634508942269541 ] } },
{ "type": "Feature", "properties": { "name": "Westchester Square", "zip": "10461", "longitude": -73.846730618227383, "latitute": 40.84086754432402 }, "geometry": { "type": "Point", "coordinates": [ -73.846730618227383, 40.84086754432402 ] } },
{ "type": "Feature", "properties": { "name": "Woodlawn Heights", "zip": "10470", "longitude": -73.867942000005357, "latitute": 40.900439909757182 }, "geometry": { "type": "Point", "coordinates": [ -73.867942000005357, 40.900439909757182 ] } },
{ "type": "Feature", "properties": { "name": "Woodstock", "zip": "10456", "longitude": -73.904647993476942, "latitute": 40.82061890603643 }, "geometry": { "type": "Point", "coordinates": [ -73.904647993476942, 40.82061890603643 ] } },
{ "type": "Feature", "properties": { "name": "Yorkville", "zip": "10021", "longitude": -73.956372523193338, "latitute": 40.773655641613949 }, "geometry": { "type": "Point", "coordinates": [ -73.956372523193338, 40.773655641613949 ] } },
{ "type": "Feature", "properties": { "name": "Arlington", "zip": "11207", "longitude": -73.887237237745609, "latitute": 40.68068925695902 }, "geometry": { "type": "Point", "coordinates": [ -73.887237237745609, 40.68068925695902 ] } },
{ "type": "Feature", "properties": { "name": "Bay Ridge", "zip": "11209", "longitude": -74.029538351913573, "latitute": 40.633625713382486 }, "geometry": { "type": "Point", "coordinates": [ -74.029538351913573, 40.633625713382486 ] } },
{ "type": "Feature", "properties": { "name": "Bedford", "zip": "11238", "longitude": -73.956164713634962, "latitute": 40.681812111724717 }, "geometry": { "type": "Point", "coordinates": [ -73.956164713634962, 40.681812111724717 ] } },
{ "type": "Feature", "properties": { "name": "Borough Park", "zip": "11219", "longitude": -73.98900318822345, "latitute": 40.638888838712376 }, "geometry": { "type": "Point", "coordinates": [ -73.98900318822345, 40.638888838712376 ] } },
{ "type": "Feature", "properties": { "name": "Brighton Beach <br> (Closed for Renovation)", "zip": "11235", "longitude": -73.966774876171499, "latitute": 40.576107746981862 }, "geometry": { "type": "Point", "coordinates": [ -73.966774876171499, 40.576107746981862 ] } },
{ "type": "Feature", "properties": { "name": "Brooklyn Heights", "zip": "11201", "longitude": -73.991347988148334, "latitute": 40.695682555237447 }, "geometry": { "type": "Point", "coordinates": [ -73.991347988148334, 40.695682555237447 ] } },
{ "type": "Feature", "properties": { "name": "Brower Park", "zip": "11216", "longitude": -73.94856613670774, "latitute": 40.675370851852314 }, "geometry": { "type": "Point", "coordinates": [ -73.94856613670774, 40.675370851852314 ] } },
{ "type": "Feature", "properties": { "name": "Brownsville", "zip": "11212", "longitude": -73.908603432944489, "latitute": 40.671526655858436 }, "geometry": { "type": "Point", "coordinates": [ -73.908603432944489, 40.671526655858436 ] } },
{ "type": "Feature", "properties": { "name": "Bushwick", "zip": "11206", "longitude": -73.939618421357267, "latitute": 40.704559063938675 }, "geometry": { "type": "Point", "coordinates": [ -73.939618421357267, 40.704559063938675 ] } },
{ "type": "Feature", "properties": { "name": "Canarsie", "zip": "11236", "longitude": -73.899524421244678, "latitute": 40.642208453155739 }, "geometry": { "type": "Point", "coordinates": [ -73.899524421244678, 40.642208453155739 ] } },
{ "type": "Feature", "properties": { "name": "Carroll Gardens", "zip": "11231", "longitude": -73.998019060314931, "latitute": 40.683213515337584 }, "geometry": { "type": "Point", "coordinates": [ -73.998019060314931, 40.683213515337584 ] } },
{ "type": "Feature", "properties": { "name": "Brooklyn Central Library", "zip": "11238", "longitude": -73.968224382871298, "latitute": 40.672343526336505 }, "geometry": { "type": "Point", "coordinates": [ -73.968224382871298, 40.672343526336505 ] } },
{ "type": "Feature", "properties": { "name": "Clarendon", "zip": "11210", "longitude": -73.947634297071289, "latitute": 40.635740149280977 }, "geometry": { "type": "Point", "coordinates": [ -73.947634297071289, 40.635740149280977 ] } },
{ "type": "Feature", "properties": { "name": "Clinton Hill", "zip": "11238", "longitude": -73.966030666036133, "latitute": 40.68737909411427 }, "geometry": { "type": "Point", "coordinates": [ -73.966030666036133, 40.68737909411427 ] } },
{ "type": "Feature", "properties": { "name": "Coney Island", "zip": "11224", "longitude": -73.986061992626503, "latitute": 40.576637776076673 }, "geometry": { "type": "Point", "coordinates": [ -73.986061992626503, 40.576637776076673 ] } },
{ "type": "Feature", "properties": { "name": "Cortelyou", "zip": "11226", "longitude": -73.965965078063746, "latitute": 40.640803547205046 }, "geometry": { "type": "Point", "coordinates": [ -73.965965078063746, 40.640803547205046 ] } },
{ "type": "Feature", "properties": { "name": "Crown Heights", "zip": "11225", "longitude": -73.948102299078897, "latitute": 40.661189307734446 }, "geometry": { "type": "Point", "coordinates": [ -73.948102299078897, 40.661189307734446 ] } },
{ "type": "Feature", "properties": { "name": "Cypress Hills", "zip": "11208", "longitude": -73.874034878057202, "latitute": 40.67270747286009 }, "geometry": { "type": "Point", "coordinates": [ -73.874034878057202, 40.67270747286009 ] } },
{ "type": "Feature", "properties": { "name": "DeKalb", "zip": "11221", "longitude": -73.928398667421149, "latitute": 40.694816700021924 }, "geometry": { "type": "Point", "coordinates": [ -73.928398667421149, 40.694816700021924 ] } },
{ "type": "Feature", "properties": { "name": "Dyker", "zip": "11228", "longitude": -74.011988520219106, "latitute": 40.616308136970446 }, "geometry": { "type": "Point", "coordinates": [ -74.011988520219106, 40.616308136970446 ] } },
{ "type": "Feature", "properties": { "name": "East Flatbush", "zip": "11212", "longitude": -73.914940619566835, "latitute": 40.655710884739364 }, "geometry": { "type": "Point", "coordinates": [ -73.914940619566835, 40.655710884739364 ] } },
{ "type": "Feature", "properties": { "name": "Eastern Parkway", "zip": "11213", "longitude": -73.933650849564771, "latitute": 40.668486510134493 }, "geometry": { "type": "Point", "coordinates": [ -73.933650849564771, 40.668486510134493 ] } },
{ "type": "Feature", "properties": { "name": "Flatbush", "zip": "11226", "longitude": -73.958242182483986, "latitute": 40.651925081044595 }, "geometry": { "type": "Point", "coordinates": [ -73.958242182483986, 40.651925081044595 ] } },
{ "type": "Feature", "properties": { "name": "Flatlands", "zip": "11234", "longitude": -73.933213256241714, "latitute": 40.619768196259621 }, "geometry": { "type": "Point", "coordinates": [ -73.933213256241714, 40.619768196259621 ] } },
{ "type": "Feature", "properties": { "name": "Fort Hamilton", "zip": "11209", "longitude": -74.031369405408697, "latitute": 40.61637311059178 }, "geometry": { "type": "Point", "coordinates": [ -74.031369405408697, 40.61637311059178 ] } },
{ "type": "Feature", "properties": { "name": "Gerritsen Beach", "zip": "11229", "longitude": -73.923937627327604, "latitute": 40.591371034276072 }, "geometry": { "type": "Point", "coordinates": [ -73.923937627327604, 40.591371034276072 ] } },
{ "type": "Feature", "properties": { "name": "Gravesend", "zip": "11223", "longitude": -73.971808446332801, "latitute": 40.590544390004084 }, "geometry": { "type": "Point", "coordinates": [ -73.971808446332801, 40.590544390004084 ] } },
{ "type": "Feature", "properties": { "name": "Greenpoint", "zip": "11222", "longitude": -73.950694975140919, "latitute": 40.726028066887181 }, "geometry": { "type": "Point", "coordinates": [ -73.950694975140919, 40.726028066887181 ] } },
{ "type": "Feature", "properties": { "name": "Highlawn", "zip": "11223", "longitude": -73.986246415544088, "latitute": 40.605693037370436 }, "geometry": { "type": "Point", "coordinates": [ -73.986246415544088, 40.605693037370436 ] } },
{ "type": "Feature", "properties": { "name": "Homecrest", "zip": "11223", "longitude": -73.960599369646829, "latitute": 40.595236863122302 }, "geometry": { "type": "Point", "coordinates": [ -73.960599369646829, 40.595236863122302 ] } },
{ "type": "Feature", "properties": { "name": "Jamaica Bay", "zip": "11236", "longitude": -73.889243630041065, "latitute": 40.634460139017769 }, "geometry": { "type": "Point", "coordinates": [ -73.889243630041065, 40.634460139017769 ] } },
{ "type": "Feature", "properties": { "name": "Kensington", "zip": "11218", "longitude": -73.975435905172844, "latitute": 40.631291832602727 }, "geometry": { "type": "Point", "coordinates": [ -73.975435905172844, 40.631291832602727 ] } },
{ "type": "Feature", "properties": { "name": "Kings Bay", "zip": "11229", "longitude": -73.941124922969735, "latitute": 40.594861515121615 }, "geometry": { "type": "Point", "coordinates": [ -73.941124922969735, 40.594861515121615 ] } },
{ "type": "Feature", "properties": { "name": "Kings Highway", "zip": "11229", "longitude": -73.953105848656989, "latitute": 40.610256667276076 }, "geometry": { "type": "Point", "coordinates": [ -73.953105848656989, 40.610256667276076 ] } },
{ "type": "Feature", "properties": { "name": "Leonard", "zip": "11211", "longitude": -73.947935712836212, "latitute": 40.71364488802169 }, "geometry": { "type": "Point", "coordinates": [ -73.947935712836212, 40.71364488802169 ] } },
{ "type": "Feature", "properties": { "name": "Macon", "zip": "11233", "longitude": -73.934805470276189, "latitute": 40.68300490204431 }, "geometry": { "type": "Point", "coordinates": [ -73.934805470276189, 40.68300490204431 ] } },
{ "type": "Feature", "properties": { "name": "Mapleton", "zip": "11204", "longitude": -73.989440154020997, "latitute": 40.623091396332072 }, "geometry": { "type": "Point", "coordinates": [ -73.989440154020997, 40.623091396332072 ] } },
{ "type": "Feature", "properties": { "name": "Marcy", "zip": "11216", "longitude": -73.951283498021539, "latitute": 40.691623087334648 }, "geometry": { "type": "Point", "coordinates": [ -73.951283498021539, 40.691623087334648 ] } },
{ "type": "Feature", "properties": { "name": "McKinley Park", "zip": "11219", "longitude": -74.011837307633655, "latitute": 40.629187533939238 }, "geometry": { "type": "Point", "coordinates": [ -74.011837307633655, 40.629187533939238 ] } },
{ "type": "Feature", "properties": { "name": "Midwood", "zip": "11230", "longitude": -73.960314492808749, "latitute": 40.625893307187809 }, "geometry": { "type": "Point", "coordinates": [ -73.960314492808749, 40.625893307187809 ] } },
{ "type": "Feature", "properties": { "name": "Mill Basin", "zip": "11234", "longitude": -73.917021207105691, "latitute": 40.619868421040188 }, "geometry": { "type": "Point", "coordinates": [ -73.917021207105691, 40.619868421040188 ] } },
{ "type": "Feature", "properties": { "name": "New Lots", "zip": "11207", "longitude": -73.886070536826765, "latitute": 40.665159369730134 }, "geometry": { "type": "Point", "coordinates": [ -73.886070536826765, 40.665159369730134 ] } },
{ "type": "Feature", "properties": { "name": "New Utrecht <br> (Temporary Closed, will reopen later this Summer (2016).", "zip": "11214", "longitude": -74.003376545085317, "latitute": 40.608009349952326 }, "geometry": { "type": "Point", "coordinates": [ -74.003376545085317, 40.608009349952326 ] } },
{ "type": "Feature", "properties": { "name": "Pacific", "zip": "11217", "longitude": -73.978583536518769, "latitute": 40.683466629775253 }, "geometry": { "type": "Point", "coordinates": [ -73.978583536518769, 40.683466629775253 ] } },
{ "type": "Feature", "properties": { "name": "Paerdegat", "zip": "11234", "longitude": -73.919984880830185, "latitute": 40.632636993037892 }, "geometry": { "type": "Point", "coordinates": [ -73.919984880830185, 40.632636993037892 ] } },
{ "type": "Feature", "properties": { "name": "Park Slope", "zip": "11215", "longitude": -73.983455369698746, "latitute": 40.668235072298032 }, "geometry": { "type": "Point", "coordinates": [ -73.983455369698746, 40.668235072298032 ] } },
{ "type": "Feature", "properties": { "name": "Red Hook", "zip": "11231", "longitude": -74.010343069085394, "latitute": 40.675240773647502 }, "geometry": { "type": "Point", "coordinates": [ -74.010343069085394, 40.675240773647502 ] } },
{ "type": "Feature", "properties": { "name": "Rugby", "zip": "11203", "longitude": -73.930356530809163, "latitute": 40.648619293049236 }, "geometry": { "type": "Point", "coordinates": [ -73.930356530809163, 40.648619293049236 ] } },
{ "type": "Feature", "properties": { "name": "Ryder", "zip": "11204", "longitude": -73.975966527555371, "latitute": 40.615879825193119 }, "geometry": { "type": "Point", "coordinates": [ -73.975966527555371, 40.615879825193119 ] } },
{ "type": "Feature", "properties": { "name": "Saratoga", "zip": "11233", "longitude": -73.915132415982484, "latitute": 40.684810047672507 }, "geometry": { "type": "Point", "coordinates": [ -73.915132415982484, 40.684810047672507 ] } },
{ "type": "Feature", "properties": { "name": "Sheepshead Bay", "zip": "11235", "longitude": -73.955373779879039, "latitute": 40.587013429225927 }, "geometry": { "type": "Point", "coordinates": [ -73.955373779879039, 40.587013429225927 ] } },
{ "type": "Feature", "properties": { "name": "Spring Creek", "zip": "11207", "longitude": -73.885866140587368, "latitute": 40.653209761333976 }, "geometry": { "type": "Point", "coordinates": [ -73.885866140587368, 40.653209761333976 ] } },
{ "type": "Feature", "properties": { "name": "Stone Avenue", "zip": "11212", "longitude": -73.905249454206682, "latitute": 40.664499628218749 }, "geometry": { "type": "Point", "coordinates": [ -73.905249454206682, 40.664499628218749 ] } },
{ "type": "Feature", "properties": { "name": "Sunset Park", "zip": "11220", "longitude": -74.013630001215006, "latitute": 40.645912123988829 }, "geometry": { "type": "Point", "coordinates": [ -74.013630001215006, 40.645912123988829 ] } },
{ "type": "Feature", "properties": { "name": "Ulmer Park", "zip": "11214", "longitude": -73.988627406043747, "latitute": 40.592685116321512 }, "geometry": { "type": "Point", "coordinates": [ -73.988627406043747, 40.592685116321512 ] } },
{ "type": "Feature", "properties": { "name": "Walt Whitman", "zip": "11205", "longitude": -73.977732632869632, "latitute": 40.694489698349571 }, "geometry": { "type": "Point", "coordinates": [ -73.977732632869632, 40.694489698349571 ] } },
{ "type": "Feature", "properties": { "name": "Washington Irving", "zip": "11237", "longitude": -73.912200853697257, "latitute": 40.697495053029975 }, "geometry": { "type": "Point", "coordinates": [ -73.912200853697257, 40.697495053029975 ] } },
{ "type": "Feature", "properties": { "name": "Williamsburgh", "zip": "11211", "longitude": -73.957554613449403, "latitute": 40.706930424674859 }, "geometry": { "type": "Point", "coordinates": [ -73.957554613449403, 40.706930424674859 ] } },
{ "type": "Feature", "properties": { "name": "Windsor Terrace", "zip": "11218", "longitude": -73.976758768836802, "latitute": 40.648750191513038 }, "geometry": { "type": "Point", "coordinates": [ -73.976758768836802, 40.648750191513038 ] } },
{ "type": "Feature", "properties": { "name": "Arverne", "zip": "11692", "longitude": -73.784040028571113, "latitute": 40.593146783034427 }, "geometry": { "type": "Point", "coordinates": [ -73.784040028571113, 40.593146783034427 ] } },
{ "type": "Feature", "properties": { "name": "Astoria", "zip": "11102", "longitude": -73.928742090240135, "latitute": 40.772375381468763 }, "geometry": { "type": "Point", "coordinates": [ -73.928742090240135, 40.772375381468763 ] } },
{ "type": "Feature", "properties": { "name": "Auburndale", "zip": "11358", "longitude": -73.796341788397243, "latitute": 40.773746255710755 }, "geometry": { "type": "Point", "coordinates": [ -73.796341788397243, 40.773746255710755 ] } },
{ "type": "Feature", "properties": { "name": "Baisley Park", "zip": "11436", "longitude": -73.791678611123572, "latitute": 40.680311311648779 }, "geometry": { "type": "Point", "coordinates": [ -73.791678611123572, 40.680311311648779 ] } },
{ "type": "Feature", "properties": { "name": "Bay Terrace", "zip": "11360", "longitude": -73.777010896425821, "latitute": 40.782523843577152 }, "geometry": { "type": "Point", "coordinates": [ -73.777010896425821, 40.782523843577152 ] } },
{ "type": "Feature", "properties": { "name": "Bayside", "zip": "11361", "longitude": -73.768361980668132, "latitute": 40.760125581206871 }, "geometry": { "type": "Point", "coordinates": [ -73.768361980668132, 40.760125581206871 ] } },
{ "type": "Feature", "properties": { "name": "Bellerose", "zip": "11426", "longitude": -73.717104471164035, "latitute": 40.735160551802203 }, "geometry": { "type": "Point", "coordinates": [ -73.717104471164035, 40.735160551802203 ] } },
{ "type": "Feature", "properties": { "name": "Briarwood", "zip": "11435", "longitude": -73.819453120088468, "latitute": 40.710034557812079 }, "geometry": { "type": "Point", "coordinates": [ -73.819453120088468, 40.710034557812079 ] } },
{ "type": "Feature", "properties": { "name": "Broad Channel", "zip": "11693", "longitude": -73.820052658217932, "latitute": 40.600732105185145 }, "geometry": { "type": "Point", "coordinates": [ -73.820052658217932, 40.600732105185145 ] } },
{ "type": "Feature", "properties": { "name": "Broadway", "zip": "11103", "longitude": -73.918623320398183, "latitute": 40.758529266964331 }, "geometry": { "type": "Point", "coordinates": [ -73.918623320398183, 40.758529266964331 ] } },
{ "type": "Feature", "properties": { "name": "Cambria Heights", "zip": "11411", "longitude": -73.741163136485994, "latitute": 40.695722605950635 }, "geometry": { "type": "Point", "coordinates": [ -73.741163136485994, 40.695722605950635 ] } },
{ "type": "Feature", "properties": { "name": "Queens Central Library", "zip": "11432", "longitude": -73.794678039927803, "latitute": 40.70787313178586 }, "geometry": { "type": "Point", "coordinates": [ -73.794678039927803, 40.70787313178586 ] } },
{ "type": "Feature", "properties": { "name": "Corona", "zip": "11368", "longitude": -73.861976843978084, "latitute": 40.750894080398901 }, "geometry": { "type": "Point", "coordinates": [ -73.861976843978084, 40.750894080398901 ] } },
{ "type": "Feature", "properties": { "name": "Court Square", "zip": "11101", "longitude": -73.944421386189831, "latitute": 40.74689957448345 }, "geometry": { "type": "Point", "coordinates": [ -73.944421386189831, 40.74689957448345 ] } },
{ "type": "Feature", "properties": { "name": "Douglaston\/Little Neck", "zip": "11363", "longitude": -73.738229440764727, "latitute": 40.768225432005003 }, "geometry": { "type": "Point", "coordinates": [ -73.738229440764727, 40.768225432005003 ] } },
{ "type": "Feature", "properties": { "name": "East Elmhurst", "zip": "11369", "longitude": -73.873866629952786, "latitute": 40.762422129685291 }, "geometry": { "type": "Point", "coordinates": [ -73.873866629952786, 40.762422129685291 ] } },
{ "type": "Feature", "properties": { "name": "East Flushing", "zip": "11358", "longitude": -73.784302963666491, "latitute": 40.757545679612846 }, "geometry": { "type": "Point", "coordinates": [ -73.784302963666491, 40.757545679612846 ] } },
{ "type": "Feature", "properties": { "name": "Elmhurst <br> (Temporary location due to renovations)", "zip": "11373", "longitude": -73.877973657397234, "latitute": 40.738303240536474 }, "geometry": { "type": "Point", "coordinates": [ -73.877973657397234, 40.738303240536474 ] } },
{ "type": "Feature", "properties": { "name": "Far Rockaway", "zip": "11691", "longitude": -73.752479424026177, "latitute": 40.604313509149627 }, "geometry": { "type": "Point", "coordinates": [ -73.752479424026177, 40.604313509149627 ] } },
{ "type": "Feature", "properties": { "name": "Flushing", "zip": "11355", "longitude": -73.828884685132891, "latitute": 40.757774068263778 }, "geometry": { "type": "Point", "coordinates": [ -73.828884685132891, 40.757774068263778 ] } },
{ "type": "Feature", "properties": { "name": "Forest Hills", "zip": "11375", "longitude": -73.843014996810453, "latitute": 40.722146953166686 }, "geometry": { "type": "Point", "coordinates": [ -73.843014996810453, 40.722146953166686 ] } },
{ "type": "Feature", "properties": { "name": "Fresh Meadows", "zip": "11365", "longitude": -73.782281437616078, "latitute": 40.741582663525087 }, "geometry": { "type": "Point", "coordinates": [ -73.782281437616078, 40.741582663525087 ] } },
{ "type": "Feature", "properties": { "name": "Glen Oaks", "zip": "11004", "longitude": -73.714845801018029, "latitute": 40.745172198133105 }, "geometry": { "type": "Point", "coordinates": [ -73.714845801018029, 40.745172198133105 ] } },
{ "type": "Feature", "properties": { "name": "Glendale", "zip": "11385", "longitude": -73.875744347776489, "latitute": 40.702585245598996 }, "geometry": { "type": "Point", "coordinates": [ -73.875744347776489, 40.702585245598996 ] } },
{ "type": "Feature", "properties": { "name": "Hillcrest", "zip": "11366", "longitude": -73.781919298996812, "latitute": 40.729254821966911 }, "geometry": { "type": "Point", "coordinates": [ -73.781919298996812, 40.729254821966911 ] } },
{ "type": "Feature", "properties": { "name": "Hollis", "zip": "11423", "longitude": -73.76232032699329, "latitute": 40.720166536917226 }, "geometry": { "type": "Point", "coordinates": [ -73.76232032699329, 40.720166536917226 ] } },
{ "type": "Feature", "properties": { "name": "Howard Beach", "zip": "11414", "longitude": -73.841802216552182, "latitute": 40.663810256494443 }, "geometry": { "type": "Point", "coordinates": [ -73.841802216552182, 40.663810256494443 ] } },
{ "type": "Feature", "properties": { "name": "Jackson Heights", "zip": "11372", "longitude": -73.885069324683073, "latitute": 40.750196085593153 }, "geometry": { "type": "Point", "coordinates": [ -73.885069324683073, 40.750196085593153 ] } },
{ "type": "Feature", "properties": { "name": "Kew Gardens Hills <br> (Temporary location)", "zip": "11367", "longitude": -73.822269660320373, "latitute": 40.726936971854947 }, "geometry": { "type": "Point", "coordinates": [ -73.822269660320373, 40.726936971854947 ] } },
{ "type": "Feature", "properties": { "name": "Langston Hughes", "zip": "11368", "longitude": -73.868199390857015, "latitute": 40.757577301854525 }, "geometry": { "type": "Point", "coordinates": [ -73.868199390857015, 40.757577301854525 ] } },
{ "type": "Feature", "properties": { "name": "Laurelton", "zip": "11413", "longitude": -73.745673561264454, "latitute": 40.676952728046871 }, "geometry": { "type": "Point", "coordinates": [ -73.745673561264454, 40.676952728046871 ] } },
{ "type": "Feature", "properties": { "name": "Lefferts", "zip": "11419", "longitude": -73.824829698508552, "latitute": 40.686907288248328 }, "geometry": { "type": "Point", "coordinates": [ -73.824829698508552, 40.686907288248328 ] } },
{ "type": "Feature", "properties": { "name": "Lefrak City", "zip": "11368", "longitude": -73.861655929338781, "latitute": 40.737434137948505 }, "geometry": { "type": "Point", "coordinates": [ -73.861655929338781, 40.737434137948505 ] } },
{ "type": "Feature", "properties": { "name": "Long Island City", "zip": "11101", "longitude": -73.939309301981851, "latitute": 40.757803427960063 }, "geometry": { "type": "Point", "coordinates": [ -73.939309301981851, 40.757803427960063 ] } },
{ "type": "Feature", "properties": { "name": "Maspeth", "zip": "11378", "longitude": -73.893104564901179, "latitute": 40.726995370109179 }, "geometry": { "type": "Point", "coordinates": [ -73.893104564901179, 40.726995370109179 ] } },
{ "type": "Feature", "properties": { "name": "McGoldrick", "zip": "11354", "longitude": -73.809833484340899, "latitute": 40.763750316256463 }, "geometry": { "type": "Point", "coordinates": [ -73.809833484340899, 40.763750316256463 ] } },
{ "type": "Feature", "properties": { "name": "Middle Village", "zip": "11379", "longitude": -73.880859346257736, "latitute": 40.712933876176109 }, "geometry": { "type": "Point", "coordinates": [ -73.880859346257736, 40.712933876176109 ] } },
{ "type": "Feature", "properties": { "name": "Mitchell-Linden", "zip": "11354", "longitude": -73.82694112165963, "latitute": 40.769141532167481 }, "geometry": { "type": "Point", "coordinates": [ -73.82694112165963, 40.769141532167481 ] } },
{ "type": "Feature", "properties": { "name": "North Forest Park", "zip": "11375", "longitude": -73.853672505559487, "latitute": 40.711156858305394 }, "geometry": { "type": "Point", "coordinates": [ -73.853672505559487, 40.711156858305394 ] } },
{ "type": "Feature", "properties": { "name": "North Hills", "zip": "11362", "longitude": -73.731837920449507, "latitute": 40.759253639224532 }, "geometry": { "type": "Point", "coordinates": [ -73.731837920449507, 40.759253639224532 ] } },
{ "type": "Feature", "properties": { "name": "Ozone Park <br> (Closed for renovations)", "zip": "11417", "longitude": -73.846488462967613, "latitute": 40.680867178856886 }, "geometry": { "type": "Point", "coordinates": [ -73.846488462967613, 40.680867178856886 ] } },
{ "type": "Feature", "properties": { "name": "Peninsula", "zip": "11693", "longitude": -73.816065028239464, "latitute": 40.585864147138359 }, "geometry": { "type": "Point", "coordinates": [ -73.816065028239464, 40.585864147138359 ] } },
{ "type": "Feature", "properties": { "name": "Pomonok", "zip": "11365", "longitude": -73.810094886910647, "latitute": 40.732925077255004 }, "geometry": { "type": "Point", "coordinates": [ -73.810094886910647, 40.732925077255004 ] } },
{ "type": "Feature", "properties": { "name": "Poppenhusen", "zip": "11356", "longitude": -73.846018073531837, "latitute": 40.786213103407846 }, "geometry": { "type": "Point", "coordinates": [ -73.846018073531837, 40.786213103407846 ] } },
{ "type": "Feature", "properties": { "name": "Queens Library for Teens", "zip": "11691", "longitude": -73.753512406912677, "latitute": 40.602390190360587 }, "geometry": { "type": "Point", "coordinates": [ -73.753512406912677, 40.602390190360587 ] } },
{ "type": "Feature", "properties": { "name": "Queens Village", "zip": "11428", "longitude": -73.73904906070274, "latitute": 40.719888327177699 }, "geometry": { "type": "Point", "coordinates": [ -73.73904906070274, 40.719888327177699 ] } },
{ "type": "Feature", "properties": { "name": "Queensboro Hill", "zip": "11355", "longitude": -73.825169963892009, "latitute": 40.742930946490112 }, "geometry": { "type": "Point", "coordinates": [ -73.825169963892009, 40.742930946490112 ] } },
{ "type": "Feature", "properties": { "name": "Queensbridge <br> Now a Family Literacy Center", "zip": "11101", "longitude": -73.944240786526052, "latitute": 40.755073718041466 }, "geometry": { "type": "Point", "coordinates": [ -73.944240786526052, 40.755073718041466 ] } },
{ "type": "Feature", "properties": { "name": "Ravenswood <br> Now a Family Literacy Center", "zip": "11106", "longitude": -73.936403969092424, "latitute": 40.76067995120377 }, "geometry": { "type": "Point", "coordinates": [ -73.936403969092424, 40.76067995120377 ] } },
{ "type": "Feature", "properties": { "name": "Rego Park", "zip": "11374", "longitude": -73.864502825989121, "latitute": 40.727316560268292 }, "geometry": { "type": "Point", "coordinates": [ -73.864502825989121, 40.727316560268292 ] } },
{ "type": "Feature", "properties": { "name": "Richmond Hill", "zip": "11418", "longitude": -73.831642334611573, "latitute": 40.700797203326971 }, "geometry": { "type": "Point", "coordinates": [ -73.831642334611573, 40.700797203326971 ] } },
{ "type": "Feature", "properties": { "name": "Ridgewood", "zip": "11385", "longitude": -73.902588275798053, "latitute": 40.70522689472795 }, "geometry": { "type": "Point", "coordinates": [ -73.902588275798053, 40.70522689472795 ] } },
{ "type": "Feature", "properties": { "name": "Rochdale Village", "zip": "11434", "longitude": -73.770590216053805, "latitute": 40.672875204397243 }, "geometry": { "type": "Point", "coordinates": [ -73.770590216053805, 40.672875204397243 ] } },
{ "type": "Feature", "properties": { "name": "Rosedale", "zip": "11422", "longitude": -73.739911013155577, "latitute": 40.659963623126004 }, "geometry": { "type": "Point", "coordinates": [ -73.739911013155577, 40.659963623126004 ] } },
{ "type": "Feature", "properties": { "name": "Seaside", "zip": "11694", "longitude": -73.837747005202246, "latitute": 40.579404881524489 }, "geometry": { "type": "Point", "coordinates": [ -73.837747005202246, 40.579404881524489 ] } },
{ "type": "Feature", "properties": { "name": "South Hollis", "zip": "11412", "longitude": -73.753797396292612, "latitute": 40.707003911354256 }, "geometry": { "type": "Point", "coordinates": [ -73.753797396292612, 40.707003911354256 ] } },
{ "type": "Feature", "properties": { "name": "South Jamaica", "zip": "11433", "longitude": -73.790211870418091, "latitute": 40.695611117576654 }, "geometry": { "type": "Point", "coordinates": [ -73.790211870418091, 40.695611117576654 ] } },
{ "type": "Feature", "properties": { "name": "South Ozone Park", "zip": "11420", "longitude": -73.809261829254282, "latitute": 40.674783953734696 }, "geometry": { "type": "Point", "coordinates": [ -73.809261829254282, 40.674783953734696 ] } },
{ "type": "Feature", "properties": { "name": "St.Albans", "zip": "11412", "longitude": -73.760072893587449, "latitute": 40.692499971419387 }, "geometry": { "type": "Point", "coordinates": [ -73.760072893587449, 40.692499971419387 ] } },
{ "type": "Feature", "properties": { "name": "Steinway", "zip": "11105", "longitude": -73.909456592903553, "latitute": 40.776827074052747 }, "geometry": { "type": "Point", "coordinates": [ -73.909456592903553, 40.776827074052747 ] } },
{ "type": "Feature", "properties": { "name": "Sunnyside", "zip": "11104", "longitude": -73.921668031254399, "latitute": 40.740846696830602 }, "geometry": { "type": "Point", "coordinates": [ -73.921668031254399, 40.740846696830602 ] } },
{ "type": "Feature", "properties": { "name": "Whitestone", "zip": "11357", "longitude": -73.810701839265874, "latitute": 40.788540194646473 }, "geometry": { "type": "Point", "coordinates": [ -73.810701839265874, 40.788540194646473 ] } },
{ "type": "Feature", "properties": { "name": "Windsor Park", "zip": "11364", "longitude": -73.755619420934195, "latitute": 40.734504833478361 }, "geometry": { "type": "Point", "coordinates": [ -73.755619420934195, 40.734504833478361 ] } },
{ "type": "Feature", "properties": { "name": "Woodhaven", "zip": "11421", "longitude": -73.861457415179842, "latitute": 40.694531153257408 }, "geometry": { "type": "Point", "coordinates": [ -73.861457415179842, 40.694531153257408 ] } },
{ "type": "Feature", "properties": { "name": "Woodside", "zip": "11377", "longitude": -73.909793738732304, "latitute": 40.745341712986715 }, "geometry": { "type": "Point", "coordinates": [ -73.909793738732304, 40.745341712986715 ] } }
]
}
